#INSPVAXA,COM1,0,48.0,FINESTEERING,2316,359217.280,00000000,0000,15321;INS_SOLUTION_GOOD,1,23.10118084302,113.35023185115,6.2113,-6.5853,-0.0000,0.0001,-0.0016,1.441183016,-1.876111482,91.470713850,0.0052,0.0057,0.0109,0.0018,0.0019,0.0014,0.0023,0.0023,0.0098,13000044,0*
#INSPVAXA,COM1,0,48.0,FINESTEERING,2316,359217.290,00000000,0000,15321;INS_SOLUTION_GOOD,1,23.10118084302,113.35023185115,6.2113,-6.5853,0.0001,0.0001,-0.0014,1.440996064,-1.876474761,91.470590697,0.0052,0.0057,0.0109,0.0018,0.0019,0.0014,0.0023,0.0023,0.0098,13000044,0*
#INSPVAXA,COM1,0,48.0,FINESTEERING,2316,359217.300,00000000,0000,15321;INS_SOLUTION_GOOD,1,23.10118084302,113.35023185115,6.2113,-6.5853,0.0003,0.0001,-0.0015,1.440871559,-1.876410770,91.470554066,0.0052,0.0057,0.0109,0.0018,0.0019,0.0014,0.0023,0.0023,0.0098,13000044,0*
#INSPVAXA,COM1,0,48.0,FINESTEERING,2316,359217.310,00000000,0000,15321;INS_SOLUTION_GOOD,1,23.10118084302,113.35023185115,6.2113,-6.5853,0.0001,0.0001,-0.0016,1.440793663,-1.876323346,91.470610911,0.0052,0.0057,0.0109,0.0018,0.0019,0.0014,0.0023,0.0023,0.0098,13000044,0*
#INSPVAXA,COM1,0,48.0,FINESTEERING,2316,359217.320,00000000,0000,15321;INS_SOLUTION_GOOD,1,23.10118084302,113.35023185115,6.2113,-6.5853,0.0002,-0.0000,-0.0015,1.440776988,-1.876353088,91.470491555,0.0052,0.0057,0.0109,0.0018,0.0019,0.0014,0.0023,0.0023,0.0098,13000044,0*
#INSPVAXA,COM1,0,48.0,FINESTEERING,2316,359217.330,00000000,0000,15321;INS_SOLUTION_GOOD,1,23.10118084302,113.35023185115,6.2113,-6.5853,0.0001,-0.0001,-0.0015,1.440610637,-1.876253046,91.470408767,0.0052,0.0057,0.0109,0.0018,0.0019,0.0014,0.0023,0.0023,0.0098,13000044,0*
#INSPVAXA,COM1,0,48.0,FINESTEERING,2316,359217.340,00000000,0000,15321;INS_SOLUTION_GOOD,1,23.10118084302,113.35023185115,6.2113,-6.5853,0.0002,-0.0002,-0.0015,1.440439330,-1.876241201,91.470579496,0.0052,0.0057,0.0109,0.0018,0.0019,0.0014,0.0023,0.0023,0.0098,13000044,0*
#INSPVAXA,COM1,0,48.0,FINESTEERING,2316,359217.350,00000000,0000,15321;INS_SOLUTION_GOOD,1,23.10118084302,113.35023185115,6.2113,-6.5853,0.0002,-0.0001,-0.0016,1.440290233,-1.876210743,91.470714689,0.0052,0.0057,0.0109,0.0018,0.0019,0.0014,0.0023,0.0023,0.0098,13000044,0*
#INSPVAXA,COM1,0,48.0,FINESTEERING,2316,359217.360,00000000,0000,15321;INS_SOLUTION_GOOD,1,23.10118084302,113.35023185115,6.2113,-6.5853,0.0001,-0.0003,-0.0015,1.440299372,-1.875975389,91.470780738,0.0052,0.0057,0.0109,0.0018,0.0019,0.0014,0.0023,0.0023,0.0098,13000044,0*
#INSPVAXA,COM1,0,48.0,FINESTEERING,2316,359217.370,00000000,0000,15321;INS_SOLUTION_GOOD,1,23.10118084302,113.35023185115,6.2113,-6.5853,0.0001,-0.0003,-0.0014,1.440235698,-1.876053284,91.470770439,0.0052,0.0057,0.0109,0.0018,0.0019,0.0014,0.0023,0.0023,0.0098,13000044,0*
#INSPVAXA,COM1,0,48.0,FINESTEERING,2316,359217.380,00000000,0000,15321;INS_SOLUTION_GOOD,1,23.10118084302,113.35023185115,6.2113,-6.5853,-0.0000,-0.0004,-0.0016,1.439989133,-1.876068802,91.470797803,0.0052,0.0057,0.0109,0.0018,0.0019,0.0014,0.0023,0.0023,0.0098,13000044,0*
#INSPVAXA,COM1,0,48.0,FINESTEERING,2316,359217.390,00000000,0000,15321;INS_SOLUTION_GOOD,1,23.10118084302,113.35023185115,6.2113,-6.5853,-0.0000,-0.0004,-0.0016,1.439744570,-1.876205608,91.470946509,0.0052,0.0057,0.0109,0.0018,0.0019,0.0014,0.0023,0.0023,0.0098,13000044,0*
#INSPVAXA,COM1,0,48.0,FINESTEERING,2316,359217.400,00000000,0000,15321;INS_SOLUTION_GOOD,1,23.10118084302,113.35023185115,6.2113,-6.5853,-0.0001,-0.0004,-0.0015,1.439713989,-1.876467995,91.470920112,0.0052,0.0057,0.0109,0.0018,0.0019,0.0014,0.0023,0.0023,0.0098,13000044,0*
#INSPVAXA,COM1,0,48.0,FINESTEERING,2316,359217.410,00000000,0000,15321;INS_SOLUTION_GOOD,1,23.10118084302,113.35023185115,6.2113,-6.5853,-0.0001,-0.0004,-0.0014,1.439630172,-1.876209653,91.470804886,0.0052,0.0057,0.0109,0.0018,0.0019,0.0014,0.0023,0.0023,0.0098,13000044,0*
#INSPVAXA,COM1,0,48.0,FINESTEERING,2316,359217.420,00000000,0000,15321;INS_SOLUTION_GOOD,1,23.10118084302,113.35023185115,6.2113,-6.5853,-0.0002,-0.0005,-0.0016,1.439604547,-1.876102144,91.470992346,0.0052,0.0057,0.0109,0.0018,0.0019,0.0014,0.0023,0.0023,0.0098,13000044,0*
#INSPVAXA,COM1,0,48.0,FINESTEERING,2316,359217.430,00000000,0000,15321;INS_SOLUTION_GOOD,1,23.10118084302,113.35023185115,6.2113,-6.5853,-0.0003,-0.0004,-0.0016,1.439504121,-1.876033969,91.470970974,0.0052,0.0057,0.0109,0.0018,0.0019,0.0014,0.0023,0.0023,0.0098,13000044,0*
#INSPVAXA,COM1,0,48.0,FINESTEERING,2316,359217.440,00000000,0000,15321;INS_SOLUTION_GOOD,1,23.10118084302,113.35023185115,6.2113,-6.5853,-0.0003,-0.0005,-0.0014,1.439481976,-1.875986849,91.470992346,0.0052,0.0057,0.0109,0.0018,0.0019,0.0014,0.0023,0.0023,0.0098,13000044,0*
#INSPVAXA,COM1,0,48.0,FINESTEERING,2316,359217.450,00000000,0000,15321;INS_SOLUTION_GOOD,1,23.10118084302,113.35023185115,6.2113,-6.5853,-0.0004,-0.0005,-0.0015,1.439487195,-1.876060104,91.470967881,0.0052,0.0057,0.0109,0.0018,0.0019,0.0014,0.0023,0.0023,0.0098,13000044,0*
#INSPVAXA,COM1,0,48.0,FINESTEERING,2316,359217.460,00000000,0000,15321;INS_SOLUTION_GOOD,1,23.10118084302,113.35023185115,6.2113,-6.5853,-0.0005,-0.0005,-0.0016,1.439637641,-1.875934440,91.470898353,0.0052,0.0057,0.0109,0.0018,0.0019,0.0014,0.0023,0.0023,0.0098,13000044,0*
#INSPVAXA,COM1,0,48.0,FINESTEERING,2316,359217.470,00000000,0000,15321;INS_SOLUTION_GOOD,1,23.10118084302,113.35023185115,6.2113,-6.5853,-0.0006,-0.0005,-0.0016,1.439669961,-1.875829126,91.470814992,0.0052,0.0057,0.0109,0.0018,0.0019,0.0014,0.0023,0.0023,0.0098,13000044,0*
#INSPVAXA,COM1,0,48.0,FINESTEERING,2316,359217.480,00000000,0000,15321;INS_SOLUTION_GOOD,1,23.10118084302,113.35023185115,6.2113,-6.5853,-0.0007,-0.0006,-0.0016,1.439798000,-1.875982403,91.470965245,0.0052,0.0057,0.0109,0.0018,0.0019,0.0014,0.0023,0.0023,0.0098,13000044,0*
#INSPVAXA,COM1,0,48.0,FINESTEERING,2316,359217.490,00000000,0000,15321;INS_SOLUTION_GOOD,1,23.10118084302,113.35023185115,6.2113,-6.5853,-0.0006,-0.0005,-0.0017,1.439658819,-1.875934316,91.470983910,0.0052,0.0057,0.0109,0.0018,0.0019,0.0014,0.0023,0.0023,0.0098,13000044,0*
#INSPVAXA,COM1,0,48.0,FINESTEERING,2316,359217.500,00000000,0000,15321;INS_SOLUTION_GOOD,1,23.10118084302,113.35023185115,6.2113,-6.5853,-0.0008,-0.0005,-0.0018,1.439642087,-1.875986849,91.470878845,0.0052,0.0057,0.0109,0.0018,0.0019,0.0014,0.0023,0.0023,0.0098,13000044,0*
#INSPVAXA,COM1,0,48.0,FINESTEERING,2316,359217.510,00000000,0000,15321;INS_SOLUTION_GOOD,1,23.10118084302,113.35023185115,6.2113,-6.5853,-0.0009,-0.0005,-0.0017,1.439799035,-1.876055078,91.470727115,0.0052,0.0057,0.0109,0.0018,0.0019,0.0014,0.0023,0.0023,0.0098,13000044,0*
#INSPVAXA,COM1,0,48.0,FINESTEERING,2316,359217.520,00000000,0000,15321;INS_SOLUTION_GOOD,1,23.10118084302,113.35023185115,6.2113,-6.5853,-0.0009,-0.0005,-0.0018,1.439856331,-1.875788564,91.470812727,0.0052,0.0057,0.0109,0.0018,0.0019,0.0014,0.0023,0.0023,0.0098,13000044,0*
#INSPVAXA,COM1,0,48.0,FINESTEERING,2316,359217.530,00000000,0000,15321;INS_SOLUTION_GOOD,1,23.10118084301,113.35023185115,6.2113,-6.5853,-0.0009,-0.0004,-0.0021,1.439914400,-1.875773184,91.470568164,0.0052,0.0057,0.0109,0.0018,0.0019,0.0014,0.0023,0.0023,0.0098,13000044,0*
#INSPVAXA,COM1,0,48.0,FINESTEERING,2316,359217.540,00000000,0000,15321;INS_SOLUTION_GOOD,1,23.10118084301,113.35023185115,6.2113,-6.5853,-0.0010,-0.0004,-0.0021,1.439995777,-1.875964439,91.470536614,0.0052,0.0057,0.0109,0.0018,0.0019,0.0014,0.0023,0.0023,0.0098,13000044,0*
#INSPVAXA,COM1,0,48.0,FINESTEERING,2316,359217.550,00000000,0000,15321;INS_SOLUTION_GOOD,1,23.10118084301,113.35023185115,6.2113,-6.5853,-0.0010,-0.0003,-0.0019,1.440112109,-1.875896144,91.470425504,0.0052,0.0057,0.0109,0.0018,0.0019,0.0014,0.0023,0.0023,0.0098,13000044,0*
#INSPVAXA,COM1,0,48.0,FINESTEERING,2316,359217.560,00000000,0000,15321;INS_SOLUTION_GOOD,1,23.10118084301,113.35023185115,6.2113,-6.5853,-0.0011,-0.0002,-0.0019,1.440276720,-1.875995141,91.470417140,0.0052,0.0057,0.0109,0.0018,0.0019,0.0014,0.0023,0.0023,0.0098,13000044,0*
#INSPVAXA,COM1,0,48.0,FINESTEERING,2316,359217.570,00000000,0000,15321;INS_SOLUTION_GOOD,1,23.10118084301,113.35023185115,6.2113,-6.5853,-0.0010,-0.0001,-0.0021,1.440406132,-1.875820693,91.470492325,0.0052,0.0057,0.0109,0.0018,0.0019,0.0014,0.0023,0.0023,0.0098,13000044,0*
#INSPVAXA,COM1,0,48.0,FINESTEERING,2316,359217.580,00000000,0000,15321;INS_SOLUTION_GOOD,1,23.10118084301,113.35023185115,6.2113,-6.5853,-0.0011,-0.0001,-0.0020,1.440781623,-1.875901874,91.470429179,0.0052,0.0057,0.0109,0.0018,0.0019,0.0014,0.0023,0.0023,0.0098,13000044,0*
#INSPVAXA,COM1,0,48.0,FINESTEERING,2316,359217.590,00000000,0000,15321;INS_SOLUTION_GOOD,1,23.10118084301,113.35023185115,6.2113,-6.5853,-0.0010,0.0000,-0.0019,1.440773285,-1.876009575,91.470523100,0.0052,0.0057,0.0109,0.0018,0.0019,0.0014,0.0023,0.0023,0.0098,13000044,0*
#INSPVAXA,COM1,0,48.0,FINESTEERING,2316,359217.600,00000000,0000,15321;INS_SOLUTION_GOOD,1,23.10118084301,113.35023185115,6.2113,-6.5853,-0.0009,0.0001,-0.0019,1.441322835,-1.876086384,91.470522984,0.0052,0.0057,0.0109,0.0018,0.0019,0.0014,0.0023,0.0023,0.0098,13000044,0*
#INSPVAXA,COM1,0,48.0,FINESTEERING,2316,359217.610,00000000,0000,15321;INS_SOLUTION_GOOD,1,23.10118084301,113.35023185115,6.2113,-6.5853,-0.0008,0.0002,-0.0020,1.441212966,-1.876221688,91.470684574,0.0052,0.0057,0.0109,0.0018,0.0019,0.0014,0.0023,0.0023,0.0098,13000044,0*
#INSPVAXA,COM1,0,48.0,FINESTEERING,2316,359217.620,00000000,0000,15321;INS_SOLUTION_GOOD,1,23.10118084301,113.35023185115,6.2113,-6.5853,-0.0009,0.0001,-0.0019,1.441395848,-1.876128272,91.470873766,0.0052,0.0057,0.0109,0.0018,0.0019,0.0014,0.0023,0.0023,0.0098,13000044,0*
#INSPVAXA,COM1,0,48.0,FINESTEERING,2316,359217.630,00000000,0000,15321;INS_SOLUTION_GOOD,1,23.10118084301,113.35023185115,6.2113,-6.5853,-0.0007,0.0002,-0.0018,1.441404288,-1.875995873,91.470899897,0.0052,0.0057,0.0109,0.0018,0.0019,0.0014,0.0023,0.0023,0.0098,13000044,0*
#INSPVAXA,COM1,0,48.0,FINESTEERING,2316,359217.640,00000000,0000,15321;INS_SOLUTION_GOOD,1,23.10118084301,113.35023185115,6.2113,-6.5853,-0.0006,0.0002,-0.0020,1.441487715,-1.876167876,91.470861223,0.0052,0.0057,0.0109,0.0018,0.0019,0.0014,0.0023,0.0023,0.0098,13000044,0*
#INSPVAXA,COM1,0,48.0,FINESTEERING,2316,359217.650,00000000,0000,15321;INS_SOLUTION_GOOD,1,23.10118084301,113.35023185115,6.2113,-6.5853,-0.0005,0.0002,-0.0020,1.441497045,-1.876188239,91.471025638,0.0052,0.0057,0.0109,0.0018,0.0019,0.0014,0.0023,0.0023,0.0098,13000044,0*
#INSPVAXA,COM1,0,48.0,FINESTEERING,2316,359217.660,00000000,0000,15321;INS_SOLUTION_GOOD,1,23.10118084301,113.35023185115,6.2113,-6.5853,-0.0004,0.0002,-0.0018,1.441445866,-1.876451064,91.471136746,0.0052,0.0057,0.0109,0.0018,0.0019,0.0014,0.0023,0.0023,0.0098,13000044,0*
#INSPVAXA,COM1,0,48.0,FINESTEERING,2316,359217.670,00000000,0000,15321;INS_SOLUTION_GOOD,1,23.10118084300,113.35023185115,6.2113,-6.5853,-0.0001,0.0002,-0.0017,1.441402662,-1.876367443,91.471147818,0.0052,0.0057,0.0109,0.0018,0.0019,0.0014,0.0023,0.0023,0.0098,13000044,0*
#INSPVAXA,COM1,0,48.0,FINESTEERING,2316,359217.680,00000000,0000,15321;INS_SOLUTION_GOOD,1,23.10118084300,113.35023185115,6.2113,-6.5853,-0.0001,0.0001,-0.0017,1.441271462,-1.876356449,91.471147044,0.0052,0.0057,0.0109,0.0018,0.0019,0.0014,0.0023,0.0023,0.0098,13000044,0*
#INSPVAXA,COM1,0,48.0,FINESTEERING,2316,359217.690,00000000,0000,15321;INS_SOLUTION_GOOD,1,23.10118084300,113.35023185115,6.2113,-6.5853,0.0001,0.0001,-0.0019,1.441151451,-1.876526865,91.471122190,0.0052,0.0057,0.0109,0.0018,0.0019,0.0014,0.0023,0.0023,0.0098,13000044,0*
#INSPVAXA,COM1,0,48.0,FINESTEERING,2316,359217.700,00000000,0000,15321;INS_SOLUTION_GOOD,1,23.10118084300,113.35023185115,6.2113,-6.5853,0.0000,-0.0000,-0.0017,1.440878754,-1.876806105,91.471047202,0.0052,0.0057,0.0109,0.0018,0.0019,0.0014,0.0023,0.0023,0.0098,13000044,0*
#INSPVAXA,COM1,0,48.0,FINESTEERING,2316,359217.710,00000000,0000,15321;INS_SOLUTION_GOOD,1,23.10118084300,113.35023185115,6.2113,-6.5853,0.0003,-0.0001,-0.0019,1.440679845,-1.876711141,91.471118396,0.0052,0.0057,0.0109,0.0018,0.0019,0.0014,0.0023,0.0023,0.0098,13000044,0*
#INSPVAXA,COM1,0,48.0,FINESTEERING,2316,359217.720,00000000,0000,15321;INS_SOLUTION_GOOD,1,23.10118084300,113.35023185115,6.2113,-6.5853,0.0003,-0.0002,-0.0018,1.440688400,-1.876526323,91.471093542,0.0052,0.0057,0.0109,0.0018,0.0019,0.0014,0.0023,0.0023,0.0098,13000044,0*
#INSPVAXA,COM1,0,48.0,FINESTEERING,2316,359217.730,00000000,0000,15321;INS_SOLUTION_GOOD,1,23.10118084300,113.35023185115,6.2113,-6.5853,0.0004,-0.0002,-0.0018,1.440609657,-1.876467363,91.471018941,0.0052,0.0057,0.0109,0.0018,0.0019,0.0014,0.0023,0.0023,0.0098,13000044,0*
#INSPVAXA,COM1,0,48.0,FINESTEERING,2316,359217.740,00000000,0000,15321;INS_SOLUTION_GOOD,1,23.10118084300,113.35023185115,6.2113,-6.5853,0.0004,-0.0003,-0.0016,1.440406025,-1.876521561,91.471101594,0.0052,0.0057,0.0109,0.0018,0.0019,0.0014,0.0023,0.0023,0.0098,13000044,0*
#INSPVAXA,COM1,0,48.0,FINESTEERING,2316,359217.750,00000000,0000,15321;INS_SOLUTION_GOOD,1,23.10118084300,113.35023185115,6.2113,-6.5853,0.0005,-0.0004,-0.0018,1.440121172,-1.876488345,91.471091683,0.0052,0.0057,0.0109,0.0018,0.0019,0.0014,0.0023,0.0023,0.0098,13000044,0*
#INSPVAXA,COM1,0,48.0,FINESTEERING,2316,359217.760,00000000,0000,15321;INS_SOLUTION_GOOD,1,23.10118084300,113.35023185115,6.2113,-6.5853,0.0004,-0.0004,-0.0021,1.440038751,-1.876484861,91.471122964,0.0052,0.0057,0.0109,0.0018,0.0019,0.0014,0.0023,0.0023,0.0098,13000044,0*
#INSPVAXA,COM1,0,48.0,FINESTEERING,2316,359217.770,00000000,0000,15321;INS_SOLUTION_GOOD,1,23.10118084299,113.35023185115,6.2113,-6.5853,0.0005,-0.0005,-0.0019,1.439739032,-1.876387149,91.471065281,0.0052,0.0057,0.0109,0.0018,0.0019,0.0014,0.0023,0.0023,0.0098,13000044,0*
#INSPVAXA,COM1,0,48.0,FINESTEERING,2316,359217.780,00000000,0000,15321;INS_SOLUTION_GOOD,1,23.10118084299,113.35023185115,6.2113,-6.5853,0.0004,-0.0005,-0.0017,1.439707597,-1.876441541,91.470995945,0.0052,0.0057,0.0109,0.0018,0.0019,0.0014,0.0023,0.0023,0.0098,13000044,0*
#INSPVAXA,COM1,0,48.0,FINESTEERING,2316,359217.790,00000000,0000,15321;INS_SOLUTION_GOOD,1,23.10118084299,113.35023185115,6.2113,-6.5853,0.0004,-0.0005,-0.0020,1.439447095,-1.876423733,91.470914647,0.0052,0.0057,0.0109,0.0018,0.0019,0.0014,0.0023,0.0023,0.0098,13000044,0*
#INSPVAXA,COM1,0,48.0,FINESTEERING,2316,359217.800,00000000,0000,15321;INS_SOLUTION_GOOD,1,23.10118084299,113.35023185115,6.2113,-6.5853,0.0003,-0.0005,-0.0020,1.439594438,-1.876698133,91.470966601,0.0052,0.0057,0.0109,0.0018,0.0019,0.0014,0.0023,0.0023,0.0098,13000044,0*
#INSPVAXA,COM1,0,48.0,FINESTEERING,2316,359217.810,00000000,0000,15321;INS_SOLUTION_GOOD,1,23.10118084299,113.35023185115,6.2113,-6.5853,0.0002,-0.0005,-0.0020,1.439536833,-1.876469802,91.471022077,0.0052,0.0057,0.0109,0.0018,0.0019,0.0014,0.0023,0.0023,0.0098,13000044,0*
#INSPVAXA,COM1,0,48.0,FINESTEERING,2316,359217.820,00000000,0000,15321;INS_SOLUTION_GOOD,1,23.10118084299,113.35023185115,6.2113,-6.5853,0.0002,-0.0005,-0.0019,1.439629009,-1.876424081,91.470865714,0.0052,0.0057,0.0109,0.0018,0.0019,0.0014,0.0023,0.0023,0.0098,13000044,0*
#INSPVAXA,COM1,0,48.0,FINESTEERING,2316,359217.830,00000000,0000,15321;INS_SOLUTION_GOOD,1,23.10118084299,113.35023185115,6.2113,-6.5853,0.0002,-0.0004,-0.0021,1.439572100,-1.876216848,91.470825026,0.0052,0.0057,0.0109,0.0018,0.0019,0.0014,0.0023,0.0023,0.0098,13000044,0*
#INSPVAXA,COM1,0,48.0,FINESTEERING,2316,359217.840,00000000,0000,15321;INS_SOLUTION_GOOD,1,23.10118084299,113.35023185115,6.2113,-6.5853,0.0001,-0.0003,-0.0022,1.439523360,-1.876002454,91.470765988,0.0052,0.0057,0.0109,0.0018,0.0019,0.0014,0.0023,0.0023,0.0098,13000044,0*
#INSPVAXA,COM1,0,48.0,FINESTEERING,2316,359217.850,00000000,0000,15321;INS_SOLUTION_GOOD,1,23.10118084299,113.35023185115,6.2112,-6.5853,0.0000,-0.0003,-0.0020,1.439399906,-1.876358420,91.470661579,0.0052,0.0057,0.0109,0.0018,0.0019,0.0014,0.0023,0.0023,0.0098,13000044,0*
#INSPVAXA,COM1,0,48.0,FINESTEERING,2316,359217.860,00000000,0000,15321;INS_SOLUTION_GOOD,1,23.10118084298,113.35023185115,6.2112,-6.5853,0.0000,-0.0003,-0.0021,1.439505587,-1.876240149,91.470684691,0.0052,0.0057,0.0109,0.0018,0.0019,0.0014,0.0023,0.0023,0.0098,13000044,0*
#INSPVAXA,COM1,0,48.0,FINESTEERING,2316,359217.870,00000000,0000,15321;INS_SOLUTION_GOOD,1,23.10118084298,113.35023185115,6.2112,-6.5853,0.0000,-0.0003,-0.0022,1.439351582,-1.876035678,91.470711014,0.0052,0.0057,0.0109,0.0018,0.0019,0.0014,0.0023,0.0023,0.0098,13000044,0*
#INSPVAXA,COM1,0,48.0,FINESTEERING,2316,359217.880,00000000,0000,15321;INS_SOLUTION_GOOD,1,23.10118084298,113.35023185115,6.2112,-6.5853,-0.0002,-0.0002,-0.0021,1.439064879,-1.876350091,91.470679043,0.0052,0.0057,0.0109,0.0018,0.0019,0.0014,0.0023,0.0023,0.0098,13000044,0*
#INSPVAXA,COM1,0,48.0,FINESTEERING,2316,359217.890,00000000,0000,15321;INS_SOLUTION_GOOD,1,23.10118084298,113.35023185115,6.2112,-6.5853,-0.0002,-0.0002,-0.0020,1.439096351,-1.876015859,91.470869699,0.0052,0.0057,0.0109,0.0018,0.0019,0.0014,0.0023,0.0023,0.0098,13000044,0*
#INSPVAXA,COM1,0,48.0,FINESTEERING,2316,359217.900,00000000,0000,15321;INS_SOLUTION_GOOD,1,23.10118084298,113.35023185115,6.2112,-6.5853,-0.0004,-0.0002,-0.0020,1.439040136,-1.876429694,91.470774539,0.0052,0.0057,0.0109,0.0018,0.0019,0.0014,0.0023,0.0023,0.0098,13000044,0*
#INSPVAXA,COM1,0,48.0,FINESTEERING,2316,359217.910,00000000,0000,15321;INS_SOLUTION_GOOD,1,23.10118084298,113.35023185115,6.2112,-6.5853,-0.0004,-0.0002,-0.0022,1.438859970,-1.876381451,91.470584382,0.0052,0.0057,0.0109,0.0018,0.0019,0.0014,0.0023,0.0023,0.0098,13000044,0*
#INSPVAXA,COM1,0,48.0,FINESTEERING,2316,359217.920,00000000,0000,15321;INS_SOLUTION_GOOD,1,23.10118084298,113.35023185115,6.2112,-6.5853,-0.0006,-0.0002,-0.0019,1.438929224,-1.876114067,91.470525149,0.0052,0.0057,0.0109,0.0018,0.0019,0.0014,0.0023,0.0023,0.0098,13000044,0*
#INSPVAXA,COM1,0,48.0,FINESTEERING,2316,359217.930,00000000,0000,15321;INS_SOLUTION_GOOD,1,23.10118084298,113.35023185115,6.2112,-6.5853,-0.0007,-0.0002,-0.0020,1.438854240,-1.876220911,91.470416369,0.0052,0.0057,0.0109,0.0018,0.0019,0.0014,0.0023,0.0023,0.0098,13000044,0*
#INSPVAXA,COM1,0,48.0,FINESTEERING,2316,359217.940,00000000,0000,15321;INS_SOLUTION_GOOD,1,23.10118084298,113.35023185115,6.2112,-6.5853,-0.0008,-0.0001,-0.0020,1.438925819,-1.876114455,91.470470759,0.0052,0.0057,0.0109,0.0018,0.0019,0.0014,0.0023,0.0023,0.0098,13000044,0*
#INSPVAXA,COM1,0,48.0,FINESTEERING,2316,359217.950,00000000,0000,15321;INS_SOLUTION_GOOD,1,23.10118084298,113.35023185115,6.2112,-6.5853,-0.0010,-0.0002,-0.0020,1.438919590,-1.876241668,91.470440562,0.0052,0.0057,0.0109,0.0018,0.0019,0.0014,0.0023,0.0023,0.0098,13000044,0*
#INSPVAXA,COM1,0,48.0,FINESTEERING,2316,359217.960,00000000,0000,15321;INS_SOLUTION_GOOD,1,23.10118084298,113.35023185115,6.2112,-6.5853,-0.0010,-0.0001,-0.0018,1.439073677,-1.876384081,91.470372082,0.0052,0.0057,0.0109,0.0018,0.0019,0.0014,0.0023,0.0023,0.0098,13000044,0*
#INSPVAXA,COM1,0,48.0,FINESTEERING,2316,359217.970,00000000,0000,15321;INS_SOLUTION_GOOD,1,23.10118084298,113.35023185115,6.2112,-6.5853,-0.0010,-0.0002,-0.0019,1.439523051,-1.876025412,91.470474633,0.0052,0.0057,0.0109,0.0018,0.0019,0.0014,0.0023,0.0023,0.0098,13000044,0*
#INSPVAXA,COM1,0,48.0,FINESTEERING,2316,359217.980,00000000,0000,15321;INS_SOLUTION_GOOD,1,23.10118084298,113.35023185115,6.2112,-6.5853,-0.0011,-0.0001,-0.0020,1.439556348,-1.876058627,91.470560964,0.0052,0.0057,0.0109,0.0018,0.0019,0.0014,0.0023,0.0023,0.0098,13000044,0*
#INSPVAXA,COM1,0,48.0,FINESTEERING,2316,359217.990,00000000,0000,15321;INS_SOLUTION_GOOD,1,23.10118084298,113.35023185115,6.2112,-6.5853,-0.0011,-0.0002,-0.0019,1.439725411,-1.876062307,91.470655268,0.0052,0.0057,0.0109,0.0018,0.0019,0.0014,0.0023,0.0023,0.0098,13000044,0*
#INSPVAXA,COM1,0,48.0,FINESTEERING,2316,359218.000,00000000,0000,15321;INS_SOLUTION_GOOD,1,23.10118084297,113.35023185115,6.2112,-6.5853,-0.0012,-0.0001,-0.0016,1.439986179,-1.876178948,91.470660804,0.0052,0.0057,0.0109,0.0018,0.0019,0.0014,0.0023,0.0023,0.0098,13000044,0*
#INSPVAXA,COM1,0,48.0,FINESTEERING,2316,359218.010,00000000,0000,15321;INS_SOLUTION_GOOD,1,23.10118084297,113.35023185115,6.2112,-6.5853,-0.0010,-0.0001,-0.0017,1.440209214,-1.876272783,91.470521744,0.0052,0.0057,0.0109,0.0018,0.0019,0.0014,0.0023,0.0023,0.0098,13000044,0*
#INSPVAXA,COM1,0,48.0,FINESTEERING,2316,359218.020,00000000,0000,15321;INS_SOLUTION_GOOD,1,23.10118084297,113.35023185115,6.2112,-6.5853,-0.0011,-0.0001,-0.0019,1.440534444,-1.876005898,91.470478619,0.0052,0.0057,0.0109,0.0018,0.0019,0.0014,0.0023,0.0023,0.0098,13000044,0*
#INSPVAXA,COM1,0,48.0,FINESTEERING,2316,359218.030,00000000,0000,15321;INS_SOLUTION_GOOD,1,23.10118084297,113.35023185115,6.2112,-6.5853,-0.0010,-0.0001,-0.0018,1.440815306,-1.875972296,91.470512997,0.0052,0.0057,0.0109,0.0018,0.0019,0.0014,0.0023,0.0023,0.0098,13000044,0*
#INSPVAXA,COM1,0,48.0,FINESTEERING,2316,359218.040,00000000,0000,15321;INS_SOLUTION_GOOD,1,23.10118084297,113.35023185115,6.2112,-6.5853,-0.0009,-0.0000,-0.0016,1.440929816,-1.875961224,91.470544856,0.0052,0.0057,0.0109,0.0018,0.0019,0.0014,0.0023,0.0023,0.0098,13000044,0*
#INSPVAXA,COM1,0,48.0,FINESTEERING,2316,359218.050,00000000,0000,15321;INS_SOLUTION_GOOD,1,23.10118084297,113.35023185115,6.2112,-6.5853,-0.0008,-0.0001,-0.0018,1.440883673,-1.875965098,91.470507461,0.0052,0.0057,0.0109,0.0018,0.0019,0.0014,0.0023,0.0023,0.0098,13000044,0*
#INSPVAXA,COM1,0,48.0,FINESTEERING,2316,359218.060,00000000,0000,15321;INS_SOLUTION_GOOD,1,23.10118084297,113.35023185115,6.2112,-6.5853,-0.0006,0.0000,-0.0020,1.440995247,-1.876077365,91.470548343,0.0052,0.0057,0.0109,0.0018,0.0019,0.0014,0.0023,0.0023,0.0098,13000044,0*
#INSPVAXA,COM1,0,48.0,FINESTEERING,2316,359218.070,00000000,0000,15321;INS_SOLUTION_GOOD,1,23.10118084297,113.35023185115,6.2112,-6.5853,-0.0005,0.0000,-0.0019,1.441176575,-1.876117003,91.470607300,0.0052,0.0057,0.0109,0.0018,0.0019,0.0014,0.0023,0.0023,0.0098,13000044,0*
#INSPVAXA,COM1,0,48.0,FINESTEERING,2316,359218.080,00000000,0000,15321;INS_SOLUTION_GOOD,1,23.10118084297,113.35023185115,6.2112,-6.5853,-0.0003,0.0000,-0.0019,1.441142279,-1.875992472,91.470547874,0.0052,0.0057,0.0109,0.0018,0.0019,0.0014,0.0023,0.0023,0.0098,13000044,0*
#INSPVAXA,COM1,0,48.0,FINESTEERING,2316,359218.090,00000000,0000,15321;INS_SOLUTION_GOOD,1,23.10118084297,113.35023185115,6.2112,-6.5853,-0.0003,-0.0000,-0.0021,1.441268248,-1.876229352,91.470430846,0.0052,0.0057,0.0109,0.0018,0.0019,0.0014,0.0023,0.0023,0.0098,13000044,0*
#INSPVAXA,COM1,0,48.0,FINESTEERING,2316,359218.100,00000000,0000,15321;INS_SOLUTION_GOOD,1,23.10118084297,113.35023185115,6.2112,-6.5853,-0.0001,0.0001,-0.0021,1.441225814,-1.876207767,91.470410835,0.0052,0.0057,0.0109,0.0018,0.0019,0.0014,0.0023,0.0023,0.0098,13000044,0*
#INSPVAXA,COM1,0,48.0,FINESTEERING,2316,359218.110,00000000,0000,15321;INS_SOLUTION_GOOD,1,23.10118084297,113.35023185115,6.2112,-6.5853,-0.0001,0.0001,-0.0019,1.441124512,-1.876534872,91.470468626,0.0052,0.0057,0.0109,0.0018,0.0019,0.0014,0.0023,0.0023,0.0098,13000044,0*
#INSPVAXA,COM1,0,48.0,FINESTEERING,2316,359218.120,00000000,0000,15321;INS_SOLUTION_GOOD,1,23.10118084297,113.35023185115,6.2112,-6.5853,0.0001,0.0001,-0.0020,1.441236390,-1.876385903,91.470380248,0.0052,0.0057,0.0109,0.0018,0.0019,0.0014,0.0023,0.0023,0.0098,13000044,0*
#INSPVAXA,COM1,0,48.0,FINESTEERING,2316,359218.130,00000000,0000,15321;INS_SOLUTION_GOOD,1,23.10118084297,113.35023185115,6.2112,-6.5853,0.0001,0.0001,-0.0021,1.441267666,-1.876244493,91.470382489,0.0052,0.0057,0.0109,0.0018,0.0019,0.0014,0.0023,0.0023,0.0098,13000044,0*
#INSPVAXA,COM1,0,48.0,FINESTEERING,2316,359218.140,00000000,0000,15321;INS_SOLUTION_GOOD,1,23.10118084297,113.35023185115,6.2112,-6.5853,0.0002,0.0002,-0.0021,1.441210564,-1.876318202,91.470287218,0.0052,0.0057,0.0109,0.0018,0.0019,0.0014,0.0023,0.0023,0.0098,13000044,0*
#INSPVAXA,COM1,0,48.0,FINESTEERING,2316,359218.150,00000000,0000,15321;INS_SOLUTION_GOOD,1,23.10118084297,113.35023185115,6.2112,-6.5853,0.0002,0.0001,-0.0019,1.441162293,-1.876372095,91.470253228,0.0052,0.0057,0.0109,0.0018,0.0019,0.0014,0.0023,0.0023,0.0098,13000044,0*
#INSPVAXA,COM1,0,48.0,FINESTEERING,2316,359218.160,00000000,0000,15321;INS_SOLUTION_GOOD,1,23.10118084297,113.35023185115,6.2112,-6.5853,0.0005,0.0001,-0.0020,1.441208905,-1.876490090,91.470232055,0.0052,0.0057,0.0109,0.0018,0.0019,0.0014,0.0023,0.0023,0.0098,13000044,0*
#INSPVAXA,COM1,0,48.0,FINESTEERING,2316,359218.170,00000000,0000,15321;INS_SOLUTION_GOOD,1,23.10118084297,113.35023185115,6.2112,-6.5853,0.0003,0.0001,-0.0020,1.441267192,-1.876533127,91.470262835,0.0052,0.0057,0.0109,0.0018,0.0019,0.0014,0.0023,0.0023,0.0098,13000044,0*
#INSPVAXA,COM1,0,48.0,FINESTEERING,2316,359218.180,00000000,0000,15321;INS_SOLUTION_GOOD,1,23.10118084297,113.35023185115,6.2112,-6.5853,0.0004,0.0001,-0.0018,1.441029458,-1.876338213,91.470352570,0.0052,0.0057,0.0109,0.0018,0.0019,0.0014,0.0023,0.0023,0.0098,13000044,0*
#INSPVAXA,COM1,0,48.0,FINESTEERING,2316,359218.190,00000000,0000,15321;INS_SOLUTION_GOOD,1,23.10118084297,113.35023185115,6.2112,-6.5853,0.0004,0.0001,-0.0017,1.440875147,-1.876305580,91.470388692,0.0052,0.0057,0.0109,0.0018,0.0019,0.0014,0.0023,0.0023,0.0098,13000044,0*
#INSPVAXA,COM1,0,48.0,FINESTEERING,2316,359218.200,00000000,0000,15321;INS_SOLUTION_GOOD,1,23.10118084297,113.35023185115,6.2112,-6.5853,0.0006,0.0000,-0.0019,1.440733458,-1.876331298,91.470479675,0.0052,0.0057,0.0109,0.0018,0.0019,0.0014,0.0023,0.0023,0.0098,13000044,0*
#INSPVAXA,COM1,0,48.0,FINESTEERING,2316,359218.210,00000000,0000,15321;INS_SOLUTION_GOOD,1,23.10118084297,113.35023185115,6.2112,-6.5853,0.0005,0.0001,-0.0019,1.440630434,-1.876589152,91.470705671,0.0052,0.0057,0.0109,0.0018,0.0019,0.0014,0.0023,0.0023,0.0098,13000044,0*
#INSPVAXA,COM1,0,48.0,FINESTEERING,2316,359218.220,00000000,0000,15321;INS_SOLUTION_GOOD,1,23.10118084297,113.35023185115,6.2112,-6.5853,0.0005,0.0000,-0.0017,1.440372495,-1.876523498,91.470680319,0.0052,0.0057,0.0109,0.0018,0.0019,0.0014,0.0023,0.0023,0.0098,13000044,0*
#INSPVAXA,COM1,0,48.0,FINESTEERING,2316,359218.230,00000000,0000,15321;INS_SOLUTION_GOOD,1,23.10118084297,113.35023185115,6.2112,-6.5853,0.0006,0.0000,-0.0016,1.440267920,-1.876542346,91.470748686,0.0052,0.0057,0.0109,0.0018,0.0019,0.0014,0.0023,0.0023,0.0098,13000044,0*
#INSPVAXA,COM1,0,48.0,FINESTEERING,2316,359218.240,00000000,0000,15321;INS_SOLUTION_GOOD,1,23.10118084297,113.35023185115,6.2112,-6.5853,0.0005,0.0000,-0.0017,1.439963562,-1.876447657,91.470800360,0.0052,0.0057,0.0109,0.0018,0.0019,0.0014,0.0023,0.0023,0.0098,13000044,0*
#INSPVAXA,COM1,0,48.0,FINESTEERING,2316,359218.250,00000000,0000,15321;INS_SOLUTION_GOOD,1,23.10118084297,113.35023185115,6.2112,-6.5853,0.0004,0.0001,-0.0016,1.439805073,-1.876432988,91.470693243,0.0052,0.0057,0.0109,0.0018,0.0019,0.0014,0.0023,0.0023,0.0098,13000044,0*
#INSPVAXA,COM1,0,48.0,FINESTEERING,2316,359218.260,00000000,0000,15321;INS_SOLUTION_GOOD,1,23.10118084297,113.35023185115,6.2112,-6.5853,0.0004,0.0001,-0.0015,1.439703297,-1.876487182,91.470638079,0.0052,0.0057,0.0109,0.0018,0.0019,0.0014,0.0023,0.0023,0.0098,13000044,0*
#INSPVAXA,COM1,0,48.0,FINESTEERING,2316,359218.270,00000000,0000,15321;INS_SOLUTION_GOOD,1,23.10118084298,113.35023185115,6.2112,-6.5853,0.0002,0.0001,-0.0015,1.439639884,-1.876443500,91.470645360,0.0052,0.0057,0.0109,0.0018,0.0019,0.0014,0.0023,0.0023,0.0098,13000044,0*
#INSPVAXA,COM1,0,48.0,FINESTEERING,2316,359218.280,00000000,0000,15321;INS_SOLUTION_GOOD,1,23.10118084298,113.35023185115,6.2112,-6.5853,0.0002,0.0001,-0.0016,1.439559584,-1.876145734,91.470698089,0.0052,0.0057,0.0109,0.0018,0.0019,0.0014,0.0023,0.0023,0.0098,13000044,0*
#INSPVAXA,COM1,0,48.0,FINESTEERING,2316,359218.290,00000000,0000,15321;INS_SOLUTION_GOOD,1,23.10118084298,113.35023185115,6.2112,-6.5853,-0.0001,0.0000,-0.0015,1.439324455,-1.876178754,91.470785002,0.0052,0.0057,0.0109,0.0018,0.0019,0.0014,0.0023,0.0023,0.0098,13000044,0*
#INSPVAXA,COM1,0,48.0,FINESTEERING,2316,359218.300,00000000,0000,15321;INS_SOLUTION_GOOD,1,23.10118084298,113.35023185115,6.2112,-6.5853,-0.0001,0.0001,-0.0015,1.439402839,-1.876175932,91.470892421,0.0052,0.0057,0.0109,0.0018,0.0019,0.0014,0.0023,0.0023,0.0098,13000044,0*
#INSPVAXA,COM1,0,48.0,FINESTEERING,2316,359218.310,00000000,0000,15321;INS_SOLUTION_GOOD,1,23.10118084298,113.35023185115,6.2112,-6.5853,-0.0002,0.0001,-0.0015,1.439264166,-1.876250719,91.470798701,0.0052,0.0057,0.0109,0.0018,0.0019,0.0014,0.0023,0.0023,0.0098,13000044,0*
#INSPVAXA,COM1,0,48.0,FINESTEERING,2316,359218.320,00000000,0000,15321;INS_SOLUTION_GOOD,1,23.10118084298,113.35023185115,6.2112,-6.5853,-0.0003,0.0001,-0.0016,1.439105654,-1.876172249,91.470810354,0.0052,0.0057,0.0109,0.0018,0.0019,0.0014,0.0023,0.0023,0.0098,13000044,0*
#INSPVAXA,COM1,0,48.0,FINESTEERING,2316,359218.330,00000000,0000,15321;INS_SOLUTION_GOOD,1,23.10118084298,113.35023185115,6.2112,-6.5853,-0.0006,0.0000,-0.0016,1.439314375,-1.876137980,91.470822891,0.0052,0.0057,0.0109,0.0018,0.0019,0.0014,0.0023,0.0023,0.0098,13000044,0*
#INSPVAXA,COM1,0,48.0,FINESTEERING,2316,359218.340,00000000,0000,15321;INS_SOLUTION_GOOD,1,23.10118084298,113.35023185115,6.2112,-6.5853,-0.0006,0.0000,-0.0016,1.439115756,-1.875956937,91.470703151,0.0052,0.0057,0.0109,0.0018,0.0019,0.0014,0.0023,0.0023,0.0098,13000044,0*
#INSPVAXA,COM1,0,48.0,FINESTEERING,2316,359218.350,00000000,0000,15321;INS_SOLUTION_GOOD,1,23.10118084298,113.35023185115,6.2112,-6.5853,-0.0007,-0.0000,-0.0017,1.439293870,-1.876155358,91.470606030,0.0052,0.0057,0.0109,0.0018,0.0019,0.0014,0.0023,0.0023,0.0098,13000044,0*
#INSPVAXA,COM1,0,48.0,FINESTEERING,2316,359218.360,00000000,0000,15321;INS_SOLUTION_GOOD,1,23.10118084298,113.35023185115,6.2112,-6.5853,-0.0007,0.0000,-0.0019,1.439321160,-1.875978503,91.470678768,0.0052,0.0057,0.0109,0.0018,0.0019,0.0014,0.0023,0.0023,0.0098,13000044,0*
#INSPVAXA,COM1,0,48.0,FINESTEERING,2316,359218.370,00000000,0000,15321;INS_SOLUTION_GOOD,1,23.10118084298,113.35023185115,6.2112,-6.5853,-0.0009,0.0001,-0.0017,1.439313580,-1.876143019,91.470699747,0.0052,0.0057,0.0109,0.0018,0.0019,0.0014,0.0023,0.0023,0.0098,13000044,0*
#INSPVAXA,COM1,0,48.0,FINESTEERING,2316,359218.380,00000000,0000,15321;INS_SOLUTION_GOOD,1,23.10118084298,113.35023185115,6.2112,-6.5853,-0.0008,0.0001,-0.0019,1.439423502,-1.876094660,91.470668473,0.0052,0.0057,0.0109,0.0018,0.0019,0.0014,0.0023,0.0023,0.0098,13000044,0*
#INSPVAXA,COM1,0,48.0,FINESTEERING,2316,359218.390,00000000,0000,15321;INS_SOLUTION_GOOD,1,23.10118084298,113.35023185115,6.2112,-6.5853,-0.0008,-0.0000,-0.0018,1.439696506,-1.875981130,91.470723053,0.0052,0.0057,0.0109,0.0018,0.0019,0.0014,0.0023,0.0023,0.0098,13000044,0*
#INSPVAXA,COM1,0,48.0,FINESTEERING,2316,359218.400,00000000,0000,15321;INS_SOLUTION_GOOD,1,23.10118084298,113.35023185115,6.2112,-6.5853,-0.0007,0.0000,-0.0020,1.439143235,-1.876071633,91.470695864,0.0052,0.0057,0.0109,0.0018,0.0019,0.0014,0.0023,0.0023,0.0098,13000044,0*
#INSPVAXA,COM1,0,48.0,FINESTEERING,2316,359218.410,00000000,0000,15321;INS_SOLUTION_GOOD,1,23.10118084298,113.35023185115,6.2112,-6.5853,-0.0009,-0.0000,-0.0017,1.439939371,-1.876436685,91.470549418,0.0052,0.0057,0.0109,0.0018,0.0019,0.0014,0.0023,0.0023,0.0098,13000044,0*
#INSPVAXA,COM1,0,48.0,FINESTEERING,2316,359218.420,00000000,0000,15321;INS_SOLUTION_GOOD,1,23.10118084298,113.35023185115,6.2112,-6.5853,-0.0009,-0.0000,-0.0017,1.439917906,-1.876274309,91.470478040,0.0052,0.0057,0.0109,0.0018,0.0019,0.0014,0.0023,0.0023,0.0098,13000044,0*
#INSPVAXA,COM1,0,48.0,FINESTEERING,2316,359218.430,00000000,0000,15321;INS_SOLUTION_GOOD,1,23.10118084298,113.35023185115,6.2112,-6.5853,-0.0009,-0.0001,-0.0018,1.440102029,-1.876372301,91.470494646,0.0052,0.0057,0.0109,0.0018,0.0019,0.0014,0.0023,0.0023,0.0098,13000044,0*
#INSPVAXA,COM1,0,48.0,FINESTEERING,2316,359218.440,00000000,0000,15321;INS_SOLUTION_GOOD,1,23.10118084298,113.35023185115,6.2112,-6.5853,-0.0010,-0.0001,-0.0019,1.440300917,-1.876169624,91.470501440,0.0052,0.0057,0.0109,0.0018,0.0019,0.0014,0.0023,0.0023,0.0098,13000044,0*
#INSPVAXA,COM1,0,48.0,FINESTEERING,2316,359218.450,00000000,0000,15321;INS_SOLUTION_GOOD,1,23.10118084298,113.35023185115,6.2112,-6.5853,-0.0010,-0.0002,-0.0017,1.440295084,-1.876232066,91.470691108,0.0052,0.0057,0.0109,0.0018,0.0019,0.0014,0.0023,0.0023,0.0098,13000044,0*
#INSPVAXA,COM1,0,48.0,FINESTEERING,2316,359218.460,00000000,0000,15321;INS_SOLUTION_GOOD,1,23.10118084298,113.35023185115,6.2112,-6.5853,-0.0008,-0.0001,-0.0019,1.440452886,-1.876279842,91.470571562,0.0052,0.0057,0.0109,0.0018,0.0019,0.0014,0.0023,0.0023,0.0098,13000044,0*
#INSPVAXA,COM1,0,48.0,FINESTEERING,2316,359218.470,00000000,0000,15321;INS_SOLUTION_GOOD,1,23.10118084298,113.35023185115,6.2112,-6.5853,-0.0010,-0.0002,-0.0019,1.440692856,-1.876372888,91.470480367,0.0052,0.0057,0.0109,0.0018,0.0019,0.0014,0.0023,0.0023,0.0098,13000044,0*
#INSPVAXA,COM1,0,48.0,FINESTEERING,2316,359218.480,00000000,0000,15321;INS_SOLUTION_GOOD,1,23.10118084298,113.35023185115,6.2112,-6.5853,-0.0009,-0.0001,-0.0018,1.440751898,-1.876186423,91.470565923,0.0052,0.0057,0.0109,0.0018,0.0019,0.0014,0.0023,0.0023,0.0098,13000044,0*
#INSPVAXA,COM1,0,48.0,FINESTEERING,2316,359218.490,00000000,0000,15321;INS_SOLUTION_GOOD,1,23.10118084298,113.35023185115,6.2112,-6.5853,-0.0010,-0.0001,-0.0017,1.440858432,-1.876234498,91.470637691,0.0052,0.0057,0.0109,0.0018,0.0019,0.0014,0.0023,0.0023,0.0098,13000044,0*
#INSPVAXA,COM1,0,48.0,FINESTEERING,2316,359218.500,00000000,0000,15321;INS_SOLUTION_GOOD,1,23.10118084298,113.35023185115,6.2112,-6.5853,-0.0007,-0.0000,-0.0018,1.440906105,-1.876186811,91.470626336,0.0052,0.0057,0.0109,0.0018,0.0019,0.0014,0.0023,0.0023,0.0098,13000044,0*
#INSPVAXA,COM1,0,48.0,FINESTEERING,2316,359218.510,00000000,0000,15321;INS_SOLUTION_GOOD,1,23.10118084298,113.35023185115,6.2112,-6.5853,-0.0007,-0.0000,-0.0018,1.441160936,-1.876252556,91.470458327,0.0052,0.0057,0.0109,0.0018,0.0019,0.0014,0.0023,0.0023,0.0098,13000044,0*
#INSPVAXA,COM1,0,48.0,FINESTEERING,2316,359218.520,00000000,0000,15321;INS_SOLUTION_GOOD,1,23.10118084298,113.35023185115,6.2112,-6.5853,-0.0007,0.0001,-0.0017,1.441172489,-1.876388031,91.470403943,0.0052,0.0057,0.0109,0.0018,0.0019,0.0014,0.0023,0.0023,0.0098,13000044,0*
#INSPVAXA,COM1,0,48.0,FINESTEERING,2316,359218.530,00000000,0000,15321;INS_SOLUTION_GOOD,1,23.10118084297,113.35023185115,6.2112,-6.5853,-0.0006,0.0000,-0.0014,1.441337683,-1.876295875,91.470429679,0.0052,0.0057,0.0109,0.0018,0.0019,0.0014,0.0023,0.0023,0.0098,13000044,0*
#INSPVAXA,COM1,0,48.0,FINESTEERING,2316,359218.540,00000000,0000,15321;INS_SOLUTION_GOOD,1,23.10118084297,113.35023185115,6.2112,-6.5853,-0.0004,0.0000,-0.0016,1.441156565,-1.876036291,91.470375295,0.0052,0.0057,0.0109,0.0018,0.0019,0.0014,0.0023,0.0023,0.0098,13000044,0*
#INSPVAXA,COM1,0,48.0,FINESTEERING,2316,359218.550,00000000,0000,15321;INS_SOLUTION_GOOD,1,23.10118084297,113.35023185115,6.2112,-6.5853,-0.0003,-0.0000,-0.0015,1.441200849,-1.876054838,91.470406079,0.0052,0.0057,0.0109,0.0018,0.0019,0.0014,0.0023,0.0023,0.0098,13000044,0*
#INSPVAXA,COM1,0,48.0,FINESTEERING,2316,359218.560,00000000,0000,15321;INS_SOLUTION_GOOD,1,23.10118084297,113.35023185115,6.2112,-6.5853,-0.0003,-0.0001,-0.0014,1.441200655,-1.876114464,91.470499305,0.0052,0.0057,0.0109,0.0018,0.0019,0.0014,0.0023,0.0023,0.0098,13000044,0*
#INSPVAXA,COM1,0,48.0,FINESTEERING,2316,359218.570,00000000,0000,15321;INS_SOLUTION_GOOD,1,23.10118084297,113.35023185115,6.2112,-6.5853,-0.0003,-0.0002,-0.0012,1.441185996,-1.876234497,91.470635650,0.0052,0.0057,0.0109,0.0018,0.0019,0.0014,0.0023,0.0023,0.0098,13000044,0*
#INSPVAXA,COM1,0,48.0,FINESTEERING,2316,359218.580,00000000,0000,15321;INS_SOLUTION_GOOD,1,23.10118084297,113.35023185115,6.2112,-6.5853,-0.0001,-0.0002,-0.0015,1.440928741,-1.876190307,91.470734706,0.0052,0.0057,0.0109,0.0018,0.0019,0.0014,0.0023,0.0023,0.0098,13000044,0*
#INSPVAXA,COM1,0,48.0,FINESTEERING,2316,359218.590,00000000,0000,15321;INS_SOLUTION_GOOD,1,23.10118084297,113.35023185115,6.2112,-6.5853,-0.0002,-0.0003,-0.0014,1.441001873,-1.876344041,91.470722176,0.0052,0.0057,0.0109,0.0018,0.0019,0.0014,0.0023,0.0023,0.0098,13000044,0*
#INSPVAXA,COM1,0,48.0,FINESTEERING,2316,359218.600,00000000,0000,15321;INS_SOLUTION_GOOD,1,23.10118084297,113.35023185115,6.2112,-6.5853,-0.0000,-0.0002,-0.0013,1.440711018,-1.876159236,91.470837644,0.0052,0.0057,0.0109,0.0018,0.0019,0.0014,0.0023,0.0023,0.0098,13000044,0*
#INSPVAXA,COM1,0,48.0,FINESTEERING,2316,359218.610,00000000,0000,15321;INS_SOLUTION_GOOD,1,23.10118084297,113.35023185115,6.2112,-6.5853,-0.0001,-0.0002,-0.0013,1.440457945,-1.876407450,91.470813948,0.0052,0.0057,0.0109,0.0018,0.0019,0.0014,0.0023,0.0023,0.0098,13000044,0*
#INSPVAXA,COM1,0,48.0,FINESTEERING,2316,359218.620,00000000,0000,15321;INS_SOLUTION_GOOD,1,23.10118084297,113.35023185115,6.2112,-6.5853,-0.0000,-0.0002,-0.0016,1.440188268,-1.876221677,91.470770637,0.0052,0.0057,0.0109,0.0018,0.0019,0.0014,0.0023,0.0023,0.0098,13000044,0*
#INSPVAXA,COM1,0,48.0,FINESTEERING,2316,359218.630,00000000,0000,15321;INS_SOLUTION_GOOD,1,23.10118084297,113.35023185115,6.2112,-6.5853,-0.0000,-0.0002,-0.0015,1.440225169,-1.876129032,91.470799479,0.0052,0.0057,0.0109,0.0018,0.0019,0.0014,0.0023,0.0023,0.0098,13000044,0*
#INSPVAXA,COM1,0,48.0,FINESTEERING,2316,359218.640,00000000,0000,15321;INS_SOLUTION_GOOD,1,23.10118084297,113.35023185115,6.2112,-6.5853,0.0000,-0.0002,-0.0015,1.440010747,-1.876005215,91.470832108,0.0052,0.0057,0.0109,0.0018,0.0019,0.0014,0.0023,0.0023,0.0098,13000044,0*
#INSPVAXA,COM1,0,48.0,FINESTEERING,2316,359218.650,00000000,0000,15321;INS_SOLUTION_GOOD,1,23.10118084296,113.35023185115,6.2112,-6.5853,0.0001,-0.0002,-0.0016,1.439888872,-1.875794193,91.470817056,0.0052,0.0057,0.0109,0.0018,0.0019,0.0014,0.0023,0.0023,0.0098,13000044,0*
#INSPVAXA,COM1,0,48.0,FINESTEERING,2316,359218.660,00000000,0000,15321;INS_SOLUTION_GOOD,1,23.10118084296,113.35023185115,6.2112,-6.5853,0.0001,-0.0001,-0.0017,1.439724463,-1.875935490,91.470860950,0.0052,0.0057,0.0109,0.0018,0.0019,0.0014,0.0023,0.0023,0.0098,13000044,0*
#INSPVAXA,COM1,0,48.0,FINESTEERING,2316,359218.670,00000000,0000,15321;INS_SOLUTION_GOOD,1,23.10118084296,113.35023185115,6.2112,-6.5853,-0.0001,-0.0001,-0.0015,1.439606763,-1.876007448,91.470852211,0.0052,0.0057,0.0109,0.0018,0.0019,0.0014,0.0023,0.0023,0.0098,13000044,0*
#INSPVAXA,COM1,0,48.0,FINESTEERING,2316,359218.680,00000000,0000,15321;INS_SOLUTION_GOOD,1,23.10118084296,113.35023185115,6.2112,-6.5853,-0.0000,-0.0000,-0.0014,1.439406131,-1.875703589,91.470922520,0.0052,0.0057,0.0109,0.0018,0.0019,0.0014,0.0023,0.0023,0.0098,13000044,0*
#INSPVAXA,COM1,0,48.0,FINESTEERING,2316,359218.690,00000000,0000,15321;INS_SOLUTION_GOOD,1,23.10118084296,113.35023185115,6.2112,-6.5853,-0.0002,-0.0001,-0.0014,1.439359808,-1.876028716,91.471027787,0.0052,0.0057,0.0109,0.0018,0.0019,0.0014,0.0023,0.0023,0.0098,13000044,0*
#INSPVAXA,COM1,0,48.0,FINESTEERING,2316,359218.700,00000000,0000,15321;INS_SOLUTION_GOOD,1,23.10118084296,113.35023185115,6.2112,-6.5853,-0.0000,-0.0001,-0.0015,1.439146456,-1.875837020,91.470869884,0.0052,0.0057,0.0109,0.0018,0.0019,0.0014,0.0023,0.0023,0.0098,13000044,0*
#INSPVAXA,COM1,0,48.0,FINESTEERING,2316,359218.710,00000000,0000,15321;INS_SOLUTION_GOOD,1,23.10118084296,113.35023185115,6.2112,-6.5853,-0.0003,-0.0002,-0.0013,1.439204235,-1.876053286,91.470787826,0.0052,0.0057,0.0109,0.0018,0.0019,0.0014,0.0023,0.0023,0.0098,13000044,0*
#INSPVAXA,COM1,0,48.0,FINESTEERING,2316,359218.720,00000000,0000,15321;INS_SOLUTION_GOOD,1,23.10118084296,113.35023185115,6.2112,-6.5853,-0.0002,-0.0002,-0.0013,1.438806178,-1.876061248,91.470815114,0.0052,0.0057,0.0109,0.0018,0.0019,0.0014,0.0023,0.0023,0.0098,13000044,0*
#INSPVAXA,COM1,0,48.0,FINESTEERING,2316,359218.730,00000000,0000,15321;INS_SOLUTION_GOOD,1,23.10118084295,113.35023185115,6.2112,-6.5853,-0.0003,-0.0003,-0.0014,1.438966701,-1.875968798,91.470806763,0.0052,0.0057,0.0109,0.0018,0.0019,0.0014,0.0023,0.0023,0.0098,13000044,0*
#INSPVAXA,COM1,0,48.0,FINESTEERING,2316,359218.740,00000000,0000,15321;INS_SOLUTION_GOOD,1,23.10118084295,113.35023185115,6.2112,-6.5853,-0.0004,-0.0003,-0.0015,1.438651575,-1.875858286,91.470882703,0.0052,0.0057,0.0109,0.0018,0.0019,0.0014,0.0023,0.0023,0.0098,13000044,0*
#INSPVAXA,COM1,0,48.0,FINESTEERING,2316,359218.750,00000000,0000,15321;INS_SOLUTION_GOOD,1,23.10118084295,113.35023185115,6.2112,-6.5853,-0.0005,-0.0003,-0.0014,1.438657401,-1.875863433,91.470833564,0.0052,0.0057,0.0109,0.0018,0.0019,0.0014,0.0023,0.0023,0.0098,13000044,0*
#INSPVAXA,COM1,0,48.0,FINESTEERING,2316,359218.760,00000000,0000,15321;INS_SOLUTION_GOOD,1,23.10118084295,113.35023185115,6.2112,-6.5853,-0.0005,-0.0004,-0.0014,1.438509890,-1.875858384,91.470697706,0.0052,0.0057,0.0109,0.0018,0.0019,0.0014,0.0023,0.0023,0.0098,13000044,0*
#INSPVAXA,COM1,0,48.0,FINESTEERING,2316,359218.770,00000000,0000,15321;INS_SOLUTION_GOOD,1,23.10118084295,113.35023185115,6.2112,-6.5853,-0.0006,-0.0004,-0.0014,1.438563884,-1.876020461,91.470767723,0.0052,0.0057,0.0109,0.0018,0.0019,0.0014,0.0023,0.0023,0.0098,13000044,0*
#INSPVAXA,COM1,0,48.0,FINESTEERING,2316,359218.780,00000000,0000,15321;INS_SOLUTION_GOOD,1,23.10118084295,113.35023185115,6.2112,-6.5853,-0.0006,-0.0003,-0.0013,1.438530575,-1.875746899,91.470714507,0.0052,0.0057,0.0109,0.0018,0.0019,0.0014,0.0023,0.0023,0.0098,13000044,0*
#INSPVAXA,COM1,0,48.0,FINESTEERING,2316,359218.790,00000000,0000,15321;INS_SOLUTION_GOOD,1,23.10118084295,113.35023185115,6.2112,-6.5853,-0.0009,-0.0003,-0.0013,1.438685370,-1.875676590,91.470770345,0.0052,0.0057,0.0109,0.0018,0.0019,0.0014,0.0023,0.0023,0.0098,13000044,0*
#INSPVAXA,COM1,0,48.0,FINESTEERING,2316,359218.800,00000000,0000,15321;INS_SOLUTION_GOOD,1,23.10118084295,113.35023185115,6.2112,-6.5853,-0.0008,-0.0003,-0.0013,1.438689547,-1.875575207,91.470627592,0.0052,0.0057,0.0109,0.0018,0.0019,0.0014,0.0023,0.0023,0.0098,13000044,0*
#INSPVAXA,COM1,0,48.0,FINESTEERING,2316,359218.810,00000000,0000,15321;INS_SOLUTION_GOOD,1,23.10118084294,113.35023185115,6.2112,-6.5853,-0.0010,-0.0003,-0.0014,1.438967091,-1.875834687,91.470660609,0.0052,0.0057,0.0109,0.0018,0.0019,0.0014,0.0023,0.0023,0.0098,13000044,0*
#INSPVAXA,COM1,0,48.0,FINESTEERING,2316,359218.820,00000000,0000,15321;INS_SOLUTION_GOOD,1,23.10118084294,113.35023185115,6.2112,-6.5853,-0.0009,-0.0002,-0.0013,1.438996419,-1.875666880,91.470656045,0.0052,0.0057,0.0109,0.0018,0.0019,0.0014,0.0023,0.0023,0.0098,13000044,0*
#INSPVAXA,COM1,0,48.0,FINESTEERING,2316,359218.830,00000000,0000,15321;INS_SOLUTION_GOOD,1,23.10118084294,113.35023185115,6.2112,-6.5853,-0.0010,-0.0002,-0.0012,1.439197536,-1.875922864,91.470682945,0.0052,0.0057,0.0109,0.0018,0.0019,0.0014,0.0023,0.0023,0.0098,13000044,0*
#INSPVAXA,COM1,0,48.0,FINESTEERING,2316,359218.840,00000000,0000,15321;INS_SOLUTION_GOOD,1,23.10118084294,113.35023185115,6.2112,-6.5853,-0.0009,-0.0002,-0.0013,1.439095278,-1.875645126,91.470662940,0.0052,0.0057,0.0109,0.0018,0.0019,0.0014,0.0023,0.0023,0.0098,13000044,0*
#INSPVAXA,COM1,0,48.0,FINESTEERING,2316,359218.850,00000000,0000,15321;INS_SOLUTION_GOOD,1,23.10118084294,113.35023185115,6.2112,-6.5853,-0.0009,-0.0001,-0.0011,1.439181613,-1.875621143,91.470720719,0.0052,0.0057,0.0109,0.0018,0.0019,0.0014,0.0023,0.0023,0.0098,13000044,0*
#INSPVAXA,COM1,0,48.0,FINESTEERING,2316,359218.860,00000000,0000,15321;INS_SOLUTION_GOOD,1,23.10118084294,113.35023185115,6.2112,-6.5853,-0.0009,-0.0002,-0.0012,1.439276877,-1.875727866,91.470631573,0.0052,0.0057,0.0109,0.0018,0.0019,0.0014,0.0023,0.0023,0.0098,13000044,0*
#INSPVAXA,COM1,0,48.0,FINESTEERING,2316,359218.870,00000000,0000,15321;INS_SOLUTION_GOOD,1,23.10118084294,113.35023185115,6.2112,-6.5853,-0.0009,-0.0001,-0.0012,1.439305034,-1.875774092,91.470614384,0.0052,0.0057,0.0109,0.0018,0.0019,0.0014,0.0023,0.0023,0.0098,13000044,0*
#INSPVAXA,COM1,0,48.0,FINESTEERING,2316,359218.880,00000000,0000,15321;INS_SOLUTION_GOOD,1,23.10118084294,113.35023185115,6.2112,-6.5853,-0.0008,-0.0000,-0.0012,1.439166757,-1.875834887,91.470600694,0.0052,0.0057,0.0109,0.0018,0.0019,0.0014,0.0023,0.0023,0.0098,13000044,0*
#INSPVAXA,COM1,0,48.0,FINESTEERING,2316,359218.890,00000000,0000,15321;INS_SOLUTION_GOOD,1,23.10118084293,113.35023185115,6.2112,-6.5853,-0.0009,-0.0001,-0.0014,1.439325139,-1.875985012,91.470681584,0.0052,0.0057,0.0109,0.0018,0.0019,0.0014,0.0023,0.0023,0.0098,13000044,0*
#INSPVAXA,COM1,0,48.0,FINESTEERING,2316,359218.900,00000000,0000,15321;INS_SOLUTION_GOOD,1,23.10118084293,113.35023185115,6.2112,-6.5853,-0.0007,-0.0001,-0.0013,1.439269500,-1.875853047,91.470622641,0.0052,0.0057,0.0109,0.0018,0.0019,0.0014,0.0023,0.0023,0.0098,13000044,0*
#INSPVAXA,COM1,0,48.0,FINESTEERING,2316,359218.910,00000000,0000,15321;INS_SOLUTION_GOOD,1,23.10118084293,113.35023185115,6.2112,-6.5853,-0.0008,-0.0002,-0.0013,1.439415646,-1.876039596,91.470684990,0.0052,0.0057,0.0109,0.0018,0.0019,0.0014,0.0023,0.0023,0.0098,13000044,0*
#INSPVAXA,COM1,0,48.0,FINESTEERING,2316,359218.920,00000000,0000,15321;INS_SOLUTION_GOOD,1,23.10118084293,113.35023185115,6.2112,-6.5853,-0.0006,-0.0002,-0.0013,1.439328546,-1.876143108,91.470883480,0.0052,0.0057,0.0109,0.0018,0.0019,0.0014,0.0023,0.0023,0.0098,13000044,0*
#INSPVAXA,COM1,0,48.0,FINESTEERING,2316,359218.930,00000000,0000,15321;INS_SOLUTION_GOOD,1,23.10118084293,113.35023185115,6.2112,-6.5853,-0.0008,-0.0002,-0.0013,1.439519648,-1.875937917,91.470864255,0.0052,0.0057,0.0109,0.0018,0.0019,0.0014,0.0023,0.0023,0.0098,13000044,0*
#INSPVAXA,COM1,0,48.0,FINESTEERING,2316,359218.940,00000000,0000,15321;INS_SOLUTION_GOOD,1,23.10118084293,113.35023185115,6.2112,-6.5853,-0.0007,-0.0002,-0.0012,1.439292613,-1.875928596,91.470949810,0.0052,0.0057,0.0109,0.0018,0.0019,0.0014,0.0023,0.0023,0.0098,13000044,0*
#INSPVAXA,COM1,0,48.0,FINESTEERING,2316,359218.950,00000000,0000,15321;INS_SOLUTION_GOOD,1,23.10118084293,113.35023185115,6.2112,-6.5853,-0.0007,-0.0004,-0.0012,1.439448765,-1.875961307,91.471022545,0.0052,0.0057,0.0109,0.0018,0.0019,0.0014,0.0023,0.0023,0.0098,13000044,0*
#INSPVAXA,COM1,0,48.0,FINESTEERING,2316,359218.960,00000000,0000,15321;INS_SOLUTION_GOOD,1,23.10118084293,113.35023185115,6.2112,-6.5853,-0.0006,-0.0004,-0.0013,1.439483725,-1.875488206,91.471044491,0.0052,0.0057,0.0109,0.0018,0.0019,0.0014,0.0023,0.0023,0.0098,13000044,0*
#INSPVAXA,COM1,0,48.0,FINESTEERING,2316,359218.970,00000000,0000,15321;INS_SOLUTION_GOOD,1,23.10118084293,113.35023185115,6.2112,-6.5853,-0.0006,-0.0003,-0.0013,1.439535680,-1.875885962,91.471038373,0.0052,0.0057,0.0109,0.0018,0.0019,0.0014,0.0023,0.0023,0.0098,13000044,0*
#INSPVAXA,COM1,0,48.0,FINESTEERING,2316,359218.980,00000000,0000,15321;INS_SOLUTION_GOOD,1,23.10118084293,113.35023185115,6.2112,-6.5853,-0.0006,-0.0004,-0.0014,1.439602788,-1.875854685,91.471022933,0.0052,0.0057,0.0109,0.0018,0.0019,0.0014,0.0023,0.0023,0.0098,13000044,0*
#INSPVAXA,COM1,0,48.0,FINESTEERING,2316,359218.990,00000000,0000,15321;INS_SOLUTION_GOOD,1,23.10118084293,113.35023185115,6.2112,-6.5853,-0.0005,-0.0004,-0.0013,1.439782052,-1.875598419,91.471058866,0.0052,0.0057,0.0109,0.0018,0.0019,0.0014,0.0023,0.0023,0.0098,13000044,0*
#INSPVAXA,COM1,0,48.0,FINESTEERING,2316,359219.000,00000000,0000,15321;INS_SOLUTION_GOOD,1,23.10118084293,113.35023185115,6.2112,-6.5853,-0.0003,-0.0002,-0.0014,1.439860128,-1.875726311,91.471142088,0.0052,0.0057,0.0109,0.0018,0.0019,0.0014,0.0023,0.0023,0.0098,13000044,0*
#INSPVAXA,COM1,0,48.0,FINESTEERING,2316,359219.010,00000000,0000,15321;INS_SOLUTION_GOOD,1,23.10118084293,113.35023185115,6.2112,-6.5853,-0.0004,-0.0004,-0.0015,1.440108147,-1.875803119,91.471122475,0.0052,0.0057,0.0109,0.0018,0.0019,0.0014,0.0023,0.0023,0.0098,13000044,0*
#INSPVAXA,COM1,0,48.0,FINESTEERING,2316,359219.020,00000000,0000,15321;INS_SOLUTION_GOOD,1,23.10118084292,113.35023185115,6.2112,-6.5853,-0.0001,-0.0003,-0.0014,1.440002211,-1.875549768,91.471214435,0.0052,0.0057,0.0109,0.0018,0.0019,0.0014,0.0023,0.0023,0.0098,13000044,0*
#INSPVAXA,COM1,0,48.0,FINESTEERING,2316,359219.030,00000000,0000,15321;INS_SOLUTION_GOOD,1,23.10118084292,113.35023185115,6.2112,-6.5853,-0.0001,-0.0004,-0.0014,1.440285273,-1.875739612,91.471154714,0.0052,0.0057,0.0109,0.0018,0.0019,0.0014,0.0023,0.0023,0.0098,13000044,0*
#INSPVAXA,COM1,0,48.0,FINESTEERING,2316,359219.040,00000000,0000,15321;INS_SOLUTION_GOOD,1,23.10118084292,113.35023185115,6.2112,-6.5853,0.0000,-0.0004,-0.0015,1.439993463,-1.875622299,91.471183648,0.0052,0.0057,0.0109,0.0018,0.0019,0.0014,0.0023,0.0023,0.0098,13000044,0*
#INSPVAXA,COM1,0,48.0,FINESTEERING,2316,359219.050,00000000,0000,15321;INS_SOLUTION_GOOD,1,23.10118084292,113.35023185115,6.2112,-6.5853,0.0001,-0.0005,-0.0014,1.440031330,-1.875442656,91.471058375,0.0052,0.0057,0.0109,0.0018,0.0019,0.0014,0.0023,0.0023,0.0098,13000044,0*
#INSPVAXA,COM1,0,48.0,FINESTEERING,2316,359219.060,00000000,0000,15321;INS_SOLUTION_GOOD,1,23.10118084292,113.35023185115,6.2112,-6.5853,0.0002,-0.0005,-0.0013,1.439840699,-1.875691453,91.470957575,0.0052,0.0057,0.0109,0.0018,0.0019,0.0014,0.0023,0.0023,0.0098,13000044,0*
#INSPVAXA,COM1,0,48.0,FINESTEERING,2316,359219.070,00000000,0000,15321;INS_SOLUTION_GOOD,1,23.10118084292,113.35023185115,6.2112,-6.5853,0.0003,-0.0006,-0.0014,1.439608119,-1.875841486,91.470921643,0.0052,0.0057,0.0109,0.0018,0.0019,0.0014,0.0023,0.0023,0.0098,13000044,0*
#INSPVAXA,COM1,0,48.0,FINESTEERING,2316,359219.080,00000000,0000,15321;INS_SOLUTION_GOOD,1,23.10118084292,113.35023185115,6.2112,-6.5853,0.0003,-0.0006,-0.0015,1.439441767,-1.875869561,91.470846094,0.0052,0.0057,0.0109,0.0018,0.0019,0.0014,0.0023,0.0023,0.0098,13000044,0*
#INSPVAXA,COM1,0,48.0,FINESTEERING,2316,359219.090,00000000,0000,15321;INS_SOLUTION_GOOD,1,23.10118084292,113.35023185115,6.2112,-6.5853,0.0003,-0.0007,-0.0014,1.439260549,-1.876188556,91.470900863,0.0052,0.0057,0.0109,0.0018,0.0019,0.0014,0.0023,0.0023,0.0098,13000044,0*
#INSPVAXA,COM1,0,48.0,FINESTEERING,2316,359219.100,00000000,0000,15321;INS_SOLUTION_GOOD,1,23.10118084292,113.35023185115,6.2112,-6.5853,0.0004,-0.0007,-0.0013,1.438823357,-1.875973850,91.470883868,0.0052,0.0057,0.0109,0.0018,0.0019,0.0014,0.0023,0.0023,0.0098,13000044,0*
#INSPVAXA,COM1,0,48.0,FINESTEERING,2316,359219.110,00000000,0000,15321;INS_SOLUTION_GOOD,1,23.10118084292,113.35023185115,6.2112,-6.5853,0.0002,-0.0007,-0.0014,1.438664485,-1.876005505,91.470879412,0.0052,0.0057,0.0109,0.0018,0.0019,0.0014,0.0023,0.0023,0.0098,13000044,0*
#INSPVAXA,COM1,0,48.0,FINESTEERING,2316,359219.120,00000000,0000,15321;INS_SOLUTION_GOOD,1,23.10118084292,113.35023185115,6.2112,-6.5853,0.0002,-0.0007,-0.0016,1.438565067,-1.875965698,91.471070716,0.0052,0.0057,0.0109,0.0018,0.0019,0.0014,0.0023,0.0023,0.0098,13000044,0*
#INSPVAXA,COM1,0,48.0,FINESTEERING,2316,359219.130,00000000,0000,15321;INS_SOLUTION_GOOD,1,23.10118084292,113.35023185115,6.2112,-6.5853,0.0001,-0.0007,-0.0014,1.438877930,-1.876087363,91.471158499,0.0052,0.0057,0.0109,0.0018,0.0019,0.0014,0.0023,0.0023,0.0098,13000044,0*
#INSPVAXA,COM1,0,48.0,FINESTEERING,2316,359219.140,00000000,0000,15321;INS_SOLUTION_GOOD,1,23.10118084292,113.35023185115,6.2112,-6.5853,0.0001,-0.0007,-0.0014,1.438646819,-1.875918482,91.471143945,0.0052,0.0057,0.0109,0.0018,0.0019,0.0014,0.0023,0.0023,0.0098,13000044,0*
#INSPVAXA,COM1,0,48.0,FINESTEERING,2316,359219.150,00000000,0000,15321;INS_SOLUTION_GOOD,1,23.10118084292,113.35023185115,6.2112,-6.5853,-0.0000,-0.0007,-0.0015,1.438683036,-1.875677168,91.471354171,0.0052,0.0057,0.0109,0.0018,0.0019,0.0014,0.0023,0.0023,0.0098,13000044,0*
#INSPVAXA,COM1,0,48.0,FINESTEERING,2316,359219.160,00000000,0000,15321;INS_SOLUTION_GOOD,1,23.10118084292,113.35023185115,6.2112,-6.5853,-0.0001,-0.0006,-0.0016,1.438615165,-1.875581127,91.471190542,0.0052,0.0057,0.0109,0.0018,0.0019,0.0014,0.0023,0.0023,0.0098,13000044,0*
#INSPVAXA,COM1,0,48.0,FINESTEERING,2316,359219.170,00000000,0000,15321;INS_SOLUTION_GOOD,1,23.10118084292,113.35023185115,6.2112,-6.5853,-0.0001,-0.0006,-0.0015,1.438738404,-1.875526360,91.471096729,0.0052,0.0057,0.0109,0.0018,0.0019,0.0014,0.0023,0.0023,0.0098,13000044,0*
#INSPVAXA,COM1,0,48.0,FINESTEERING,2316,359219.180,00000000,0000,15321;INS_SOLUTION_GOOD,1,23.10118084293,113.35023185115,6.2112,-6.5853,-0.0001,-0.0005,-0.0015,1.438932803,-1.875543743,91.470946310,0.0052,0.0057,0.0109,0.0018,0.0019,0.0014,0.0023,0.0023,0.0098,13000044,0*
#INSPVAXA,COM1,0,48.0,FINESTEERING,2316,359219.190,00000000,0000,15321;INS_SOLUTION_GOOD,1,23.10118084293,113.35023185115,6.2112,-6.5853,-0.0002,-0.0006,-0.0016,1.438797928,-1.875554406,91.470922136,0.0052,0.0057,0.0109,0.0018,0.0019,0.0014,0.0023,0.0023,0.0098,13000044,0*
#INSPVAXA,COM1,0,48.0,FINESTEERING,2316,359219.200,00000000,0000,15321;INS_SOLUTION_GOOD,1,23.10118084293,113.35023185115,6.2112,-6.5853,-0.0001,-0.0006,-0.0016,1.438898142,-1.875231145,91.471014375,0.0052,0.0057,0.0109,0.0018,0.0019,0.0014,0.0023,0.0023,0.0098,13000044,0*
#INSPVAXA,COM1,0,48.0,FINESTEERING,2316,359219.210,00000000,0000,15321;INS_SOLUTION_GOOD,1,23.10118084293,113.35023185115,6.2112,-6.5853,-0.0002,-0.0006,-0.0015,1.438908912,-1.875322907,91.470801320,0.0052,0.0057,0.0109,0.0018,0.0019,0.0014,0.0023,0.0023,0.0098,13000044,0*
#INSPVAXA,COM1,0,48.0,FINESTEERING,2316,359219.220,00000000,0000,15321;INS_SOLUTION_GOOD,1,23.10118084293,113.35023185115,6.2112,-6.5853,0.0000,-0.0005,-0.0017,1.438743833,-1.875261933,91.470720911,0.0052,0.0057,0.0109,0.0018,0.0019,0.0014,0.0023,0.0023,0.0098,13000044,0*
#INSPVAXA,COM1,0,48.0,FINESTEERING,2316,359219.230,00000000,0000,15321;INS_SOLUTION_GOOD,1,23.10118084293,113.35023185115,6.2112,-6.5853,-0.0002,-0.0005,-0.0018,1.438767618,-1.875414774,91.470637691,0.0052,0.0057,0.0109,0.0018,0.0019,0.0014,0.0023,0.0023,0.0098,13000044,0*
#INSPVAXA,COM1,0,48.0,FINESTEERING,2316,359219.240,00000000,0000,15321;INS_SOLUTION_GOOD,1,23.10118084293,113.35023185115,6.2112,-6.5853,-0.0001,-0.0004,-0.0017,1.438661974,-1.875349220,91.470629822,0.0052,0.0057,0.0109,0.0018,0.0019,0.0014,0.0023,0.0023,0.0098,13000044,0*
#INSPVAXA,COM1,0,48.0,FINESTEERING,2316,359219.250,00000000,0000,15321;INS_SOLUTION_GOOD,1,23.10118084293,113.35023185115,6.2112,-6.5853,-0.0002,-0.0004,-0.0016,1.438801022,-1.875216379,91.470566124,0.0052,0.0057,0.0109,0.0018,0.0019,0.0014,0.0023,0.0023,0.0098,13000044,0*
#INSPVAXA,COM1,0,48.0,FINESTEERING,2316,359219.260,00000000,0000,15321;INS_SOLUTION_GOOD,1,23.10118084293,113.35023185115,6.2112,-6.5853,-0.0002,-0.0003,-0.0017,1.438663424,-1.875223576,91.470643226,0.0052,0.0057,0.0109,0.0018,0.0019,0.0014,0.0023,0.0023,0.0098,13000044,0*
#INSPVAXA,COM1,0,48.0,FINESTEERING,2316,359219.270,00000000,0000,15321;INS_SOLUTION_GOOD,1,23.10118084293,113.35023185115,6.2112,-6.5853,-0.0004,-0.0004,-0.0017,1.438678562,-1.875435960,91.470632350,0.0052,0.0057,0.0109,0.0018,0.0019,0.0014,0.0023,0.0023,0.0098,13000044,0*
#INSPVAXA,COM1,0,48.0,FINESTEERING,2316,359219.280,00000000,0000,15321;INS_SOLUTION_GOOD,1,23.10118084293,113.35023185115,6.2112,-6.5853,-0.0004,-0.0003,-0.0016,1.438481439,-1.875659219,91.470636718,0.0052,0.0057,0.0109,0.0018,0.0019,0.0014,0.0023,0.0023,0.0098,13000044,0*
#INSPVAXA,COM1,0,48.0,FINESTEERING,2316,359219.290,00000000,0000,15321;INS_SOLUTION_GOOD,1,23.10118084293,113.35023185115,6.2112,-6.5853,-0.0004,-0.0003,-0.0014,1.438538240,-1.875865855,91.470605064,0.0052,0.0057,0.0109,0.0018,0.0019,0.0014,0.0023,0.0023,0.0098,13000044,0*
#INSPVAXA,COM1,0,48.0,FINESTEERING,2316,359219.300,00000000,0000,15321;INS_SOLUTION_GOOD,1,23.10118084293,113.35023185115,6.2112,-6.5853,-0.0004,-0.0003,-0.0016,1.438427256,-1.875767886,91.470648956,0.0052,0.0057,0.0109,0.0018,0.0019,0.0014,0.0023,0.0023,0.0098,13000044,0*
#INSPVAXA,COM1,0,48.0,FINESTEERING,2316,359219.310,00000000,0000,15321;INS_SOLUTION_GOOD,1,23.10118084293,113.35023185115,6.2112,-6.5853,-0.0005,-0.0004,-0.0017,1.438581371,-1.875968209,91.470634968,0.0052,0.0057,0.0109,0.0018,0.0019,0.0014,0.0023,0.0023,0.0098,13000044,0*
#INSPVAXA,COM1,0,48.0,FINESTEERING,2316,359219.320,00000000,0000,15321;INS_SOLUTION_GOOD,1,23.10118084293,113.35023185115,6.2112,-6.5853,-0.0005,-0.0004,-0.0016,1.438718103,-1.875854325,91.470552720,0.0052,0.0057,0.0109,0.0018,0.0019,0.0014,0.0023,0.0023,0.0098,13000044,0*
#INSPVAXA,COM1,0,48.0,FINESTEERING,2316,359219.330,00000000,0000,15321;INS_SOLUTION_GOOD,1,23.10118084293,113.35023185115,6.2112,-6.5853,-0.0006,-0.0005,-0.0016,1.438824913,-1.876225740,91.470573304,0.0052,0.0057,0.0109,0.0018,0.0019,0.0014,0.0023,0.0023,0.0098,13000044,0*
#INSPVAXA,COM1,0,48.0,FINESTEERING,2316,359219.340,00000000,0000,15321;INS_SOLUTION_GOOD,1,23.10118084293,113.35023185115,6.2112,-6.5853,-0.0006,-0.0005,-0.0018,1.438720632,-1.875926847,91.470527078,0.0052,0.0057,0.0109,0.0018,0.0019,0.0014,0.0023,0.0023,0.0098,13000044,0*
#INSPVAXA,COM1,0,48.0,FINESTEERING,2316,359219.350,00000000,0000,15321;INS_SOLUTION_GOOD,1,23.10118084293,113.35023185115,6.2112,-6.5853,-0.0007,-0.0006,-0.0016,1.438905624,-1.875928404,91.470466666,0.0052,0.0057,0.0109,0.0018,0.0019,0.0014,0.0023,0.0023,0.0098,13000044,0*
#INSPVAXA,COM1,0,48.0,FINESTEERING,2316,359219.360,00000000,0000,15321;INS_SOLUTION_GOOD,1,23.10118084293,113.35023185115,6.2112,-6.5853,-0.0007,-0.0006,-0.0016,1.438987227,-1.875967427,91.470325095,0.0052,0.0057,0.0109,0.0018,0.0019,0.0014,0.0023,0.0023,0.0098,13000044,0*
#INSPVAXA,COM1,0,48.0,FINESTEERING,2316,359219.370,00000000,0000,15321;INS_SOLUTION_GOOD,1,23.10118084293,113.35023185115,6.2112,-6.5853,-0.0007,-0.0007,-0.0017,1.439417004,-1.875827523,91.470391514,0.0052,0.0057,0.0109,0.0018,0.0019,0.0014,0.0023,0.0023,0.0098,13000044,0*
#INSPVAXA,COM1,0,48.0,FINESTEERING,2316,359219.380,00000000,0000,15321;INS_SOLUTION_GOOD,1,23.10118084293,113.35023185115,6.2112,-6.5853,-0.0008,-0.0007,-0.0019,1.439369830,-1.876097177,91.470389567,0.0052,0.0057,0.0109,0.0018,0.0019,0.0014,0.0023,0.0023,0.0098,13000044,0*
#INSPVAXA,COM1,0,48.0,FINESTEERING,2316,359219.390,00000000,0000,15321;INS_SOLUTION_GOOD,1,23.10118084293,113.35023185115,6.2112,-6.5853,-0.0007,-0.0008,-0.0017,1.439603854,-1.876043748,91.470330714,0.0052,0.0057,0.0109,0.0018,0.0019,0.0014,0.0023,0.0023,0.0098,13000044,0*
#INSPVAXA,COM1,0,48.0,FINESTEERING,2316,359219.400,00000000,0000,15321;INS_SOLUTION_GOOD,1,23.10118084293,113.35023185115,6.2112,-6.5853,-0.0005,-0.0008,-0.0017,1.439653779,-1.875785359,91.470232448,0.0052,0.0057,0.0109,0.0018,0.0019,0.0014,0.0023,0.0023,0.0098,13000044,0*
#INSPVAXA,COM1,0,48.0,FINESTEERING,2316,359219.410,00000000,0000,15321;INS_SOLUTION_GOOD,1,23.10118084293,113.35023185115,6.2112,-6.5853,-0.0004,-0.0007,-0.0019,1.439811371,-1.875832448,91.470269635,0.0052,0.0057,0.0109,0.0018,0.0019,0.0014,0.0023,0.0023,0.0098,13000044,0*
#INSPVAXA,COM1,0,48.0,FINESTEERING,2316,359219.420,00000000,0000,15321;INS_SOLUTION_GOOD,1,23.10118084293,113.35023185115,6.2112,-6.5853,-0.0003,-0.0007,-0.0019,1.439731073,-1.875760604,91.470227497,0.0052,0.0057,0.0109,0.0018,0.0019,0.0014,0.0023,0.0023,0.0098,13000044,0*
#INSPVAXA,COM1,0,48.0,FINESTEERING,2316,359219.430,00000000,0000,15321;INS_SOLUTION_GOOD,1,23.10118084293,113.35023185115,6.2112,-6.5853,-0.0004,-0.0007,-0.0019,1.439806031,-1.875918392,91.470292469,0.0052,0.0057,0.0109,0.0018,0.0019,0.0014,0.0023,0.0023,0.0098,13000044,0*
#INSPVAXA,COM1,0,48.0,FINESTEERING,2316,359219.440,00000000,0000,15321;INS_SOLUTION_GOOD,1,23.10118084293,113.35023185115,6.2112,-6.5853,-0.0002,-0.0007,-0.0019,1.439735245,-1.875838178,91.470408118,0.0052,0.0057,0.0109,0.0018,0.0019,0.0014,0.0023,0.0023,0.0098,13000044,0*
#INSPVAXA,COM1,0,48.0,FINESTEERING,2316,359219.450,00000000,0000,15321;INS_SOLUTION_GOOD,1,23.10118084293,113.35023185115,6.2112,-6.5853,-0.0002,-0.0007,-0.0021,1.439762031,-1.875756990,91.470387036,0.0052,0.0057,0.0109,0.0018,0.0019,0.0014,0.0023,0.0023,0.0098,13000044,0*
#INSPVAXA,COM1,0,48.0,FINESTEERING,2316,359219.460,00000000,0000,15321;INS_SOLUTION_GOOD,1,23.10118084293,113.35023185115,6.2112,-6.5853,0.0000,-0.0005,-0.0022,1.439578210,-1.875655528,91.470260123,0.0052,0.0057,0.0109,0.0018,0.0019,0.0014,0.0023,0.0023,0.0098,13000044,0*
